{
"type": "FeatureCollection",
"name": "unemployment_rate_08-14",
"crs": { "type": "name", "properties": { "name": "urn:ogc:def:crs:OGC:1.3:CRS84" } },
"features": [
{ "type": "Feature", "properties": { "OBJECTID": 1, "ISO3": "DZA", "REGION": 2, "LON": 2.632, "LAT": 28.163, "NAME": "Algeria", "CODE": "DZA", "Year2008": 11.33, "Year2009": 10.16, "Year2010": 9.96, "Year2011": 9.96, "Year2012": 10.97, "Year2013": 9.82, "Year2014": 10.6 }, "geometry": { "type": "Point", "coordinates": [ 2.627813022952694, 28.172110231402087 ] } },
{ "type": "Feature", "properties": { "OBJECTID": 2, "ISO3": "AZE", "REGION": 142, "LON": 47.395, "LAT": 40.43, "NAME": "Azerbaijan", "CODE": "AZE", "Year2008": 6.05, "Year2009": 5.74, "Year2010": 5.63, "Year2011": 5.42, "Year2012": 5.19, "Year2013": 4.97, "Year2014": 4.91 }, "geometry": { "type": "Point", "coordinates": [ 47.551738124614815, 40.295679905603208 ] } },
{ "type": "Feature", "properties": { "OBJECTID": 3, "ISO3": "ALB", "REGION": 150, "LON": 20.068, "LAT": 41.143, "NAME": "Albania", "CODE": "ALB", "Year2008": 13.06, "Year2009": 13.67, "Year2010": 14.09, "Year2011": 13.48, "Year2012": 13.38, "Year2013": 15.87, "Year2014": 17.49 }, "geometry": { "type": "Point", "coordinates": [ 20.074366046755699, 41.132545024833064 ] } },
{ "type": "Feature", "properties": { "OBJECTID": 4, "ISO3": "ARM", "REGION": 142, "LON": 44.563, "LAT": 40.534, "NAME": "Armenia", "CODE": "ARM", "Year2008": 28.6, "Year2009": 18.74, "Year2010": 19.01, "Year2011": 18.44, "Year2012": 17.31, "Year2013": 16.18, "Year2014": 17.5 }, "geometry": { "type": "Point", "coordinates": [ 44.983527700942716, 40.303842128211727 ] } },
{ "type": "Feature", "properties": { "OBJECTID": 5, "ISO3": "ARG", "REGION": 19, "LON": -65.167, "LAT": -35.377, "NAME": "Argentina", "CODE": "ARG", "Year2008": 7.84, "Year2009": 8.65, "Year2010": 7.71, "Year2011": 7.18, "Year2012": 7.22, "Year2013": 7.1, "Year2014": 7.27 }, "geometry": { "type": "Point", "coordinates": [ -65.17976624411682, -35.411281401715257 ] } },
{ "type": "Feature", "properties": { "OBJECTID": 6, "ISO3": "AUS", "REGION": 9, "LON": 136.189, "LAT": -24.973, "NAME": "Australia", "CODE": "AUS", "Year2008": 4.23, "Year2009": 5.56, "Year2010": 5.21, "Year2011": 5.08, "Year2012": 5.22, "Year2013": 5.66, "Year2014": 6.08 }, "geometry": { "type": "Point", "coordinates": [ 134.487168972370227, -25.728492152690649 ] } },
{ "type": "Feature", "properties": { "OBJECTID": 7, "ISO3": "BRB", "REGION": 29, "LON": -59.559, "LAT": 13.153, "NAME": "Barbados", "CODE": "BRB", "Year2008": 8.07, "Year2009": 10.02, "Year2010": 10.69, "Year2011": 11.14, "Year2012": 11.58, "Year2013": 11.55, "Year2014": 12.17 }, "geometry": { "type": "Point", "coordinates": [ -59.534446666380518, 13.182313666242749 ] } },
{ "type": "Feature", "properties": { "OBJECTID": 8, "ISO3": "BIH", "REGION": 150, "LON": 17.786, "LAT": 44.169, "NAME": "Bosnia and Herzegovina", "CODE": "BIH", "Year2008": 23.3, "Year2009": 24.03, "Year2010": 27.2, "Year2011": 27.6, "Year2012": 28.05, "Year2013": 27.45, "Year2014": 27.52 }, "geometry": { "type": "Point", "coordinates": [ 17.759852652777738, 44.139379877179636 ] } },
{ "type": "Feature", "properties": { "OBJECTID": 9, "ISO3": "BRA", "REGION": 19, "LON": -53.089, "LAT": -10.772, "NAME": "Brazil", "CODE": "BRA", "Year2008": 7.9, "Year2009": 8.28, "Year2010": 6.74, "Year2011": 6.69, "Year2012": 6.15, "Year2013": 6.47, "Year2014": 6.85 }, "geometry": { "type": "Point", "coordinates": [ -53.1014093049954, -10.803237840753695 ] } },
{ "type": "Feature", "properties": { "OBJECTID": 10, "ISO3": "BGR", "REGION": 150, "LON": 25.231, "LAT": 42.761, "NAME": "Bulgaria", "CODE": "BGR", "Year2008": 5.61, "Year2009": 6.82, "Year2010": 10.28, "Year2011": 11.26, "Year2012": 12.27, "Year2013": 12.94, "Year2014": 11.42 }, "geometry": { "type": "Point", "coordinates": [ 25.250545573719307, 42.740132215029746 ] } },
{ "type": "Feature", "properties": { "OBJECTID": 11, "ISO3": "CAN", "REGION": 29, "LON": -109.433, "LAT": 59.081, "NAME": "Canada", "CODE": "CAN", "Year2008": 6.14, "Year2009": 8.34, "Year2010": 8.06, "Year2011": 7.51, "Year2012": 7.29, "Year2013": 7.07, "Year2014": 6.91 }, "geometry": { "type": "Point", "coordinates": [ -103.212297053166424, 59.027404249306699 ] } },
{ "type": "Feature", "properties": { "OBJECTID": 12, "ISO3": "KHM", "REGION": 142, "LON": 104.564, "LAT": 12.714, "NAME": "Cambodia", "CODE": "KHM", "Year2008": 1.64, "Year2009": 0.19, "Year2010": 0.35, "Year2011": 0.2, "Year2012": 1.28, "Year2013": 0.3, "Year2014": 0.18 }, "geometry": { "type": "Point", "coordinates": [ 104.941540548657429, 12.724685840579127 ] } },
{ "type": "Feature", "properties": { "OBJECTID": 13, "ISO3": "LKA", "REGION": 142, "LON": 80.704, "LAT": 7.612, "NAME": "Sri Lanka", "CODE": "LKA", "Year2008": 5.22, "Year2009": 5.85, "Year2010": 4.94, "Year2011": 4.11, "Year2012": 3.88, "Year2013": 4.44, "Year2014": 4.4 }, "geometry": { "type": "Point", "coordinates": [ 80.678178377530173, 7.650325121207402 ] } },
{ "type": "Feature", "properties": { "OBJECTID": 14, "ISO3": "CHN", "REGION": 142, "LON": 106.514, "LAT": 33.42, "NAME": "China", "CODE": "CHN", "Year2008": 4.2, "Year2009": 4.3, "Year2010": 4.1, "Year2011": 4.1, "Year2012": 4.1, "Year2013": 4.05, "Year2014": 4.1 }, "geometry": { "type": "Point", "coordinates": [ 107.841079873237618, 34.005296963284252 ] } },
{ "type": "Feature", "properties": { "OBJECTID": 15, "ISO3": "CHL", "REGION": 19, "LON": -69.433, "LAT": -23.389, "NAME": "Chile", "CODE": "CHL", "Year2008": 9.28, "Year2009": 11.31, "Year2010": 8.42, "Year2011": 7.34, "Year2012": 6.66, "Year2013": 6.21, "Year2014": 6.66 }, "geometry": { "type": "Point", "coordinates": [ -71.252768659645881, -37.001684652025006 ] } },
{ "type": "Feature", "properties": { "OBJECTID": 16, "ISO3": "CYM", "REGION": 29, "LON": -81.198, "LAT": 19.314, "NAME": "Cayman Islands", "CODE": "CYM", "Year2008": 3.97, "Year2009": 6.04, "Year2010": 6.68, "Year2011": 6.78, "Year2012": 6.21, "Year2013": 6.27, "Year2014": 4.7 }, "geometry": { "type": "Point", "coordinates": [ -80.874397951704054, 19.427989594644146 ] } },
{ "type": "Feature", "properties": { "OBJECTID": 17, "ISO3": "COL", "REGION": 19, "LON": -73.076, "LAT": 3.9, "NAME": "Colombia", "CODE": "COL", "Year2008": 11.27, "Year2009": 12.07, "Year2010": 11.01, "Year2011": 10.13, "Year2012": 9.78, "Year2013": 9.06, "Year2014": 8.58 }, "geometry": { "type": "Point", "coordinates": [ -73.054034155052193, 3.885744012975863 ] } },
{ "type": "Feature", "properties": { "OBJECTID": 18, "ISO3": "CRI", "REGION": 29, "LON": -83.946, "LAT": 9.971, "NAME": "Costa Rica", "CODE": "CRI", "Year2008": 4.78, "Year2009": 7.71, "Year2010": 8.92, "Year2011": 10.14, "Year2012": 9.78, "Year2013": 8.77, "Year2014": 9.06 }, "geometry": { "type": "Point", "coordinates": [ -84.097384398271345, 9.905458957764722 ] } },
{ "type": "Feature", "properties": { "OBJECTID": 19, "ISO3": "CYP", "REGION": 142, "LON": 33.219, "LAT": 35.043, "NAME": "Cyprus", "CODE": "CYP", "Year2008": 3.65, "Year2009": 5.36, "Year2010": 6.26, "Year2011": 7.86, "Year2012": 11.8, "Year2013": 15.87, "Year2014": 16.09 }, "geometry": { "type": "Point", "coordinates": [ 33.331710698889708, 35.029615424412384 ] } },
{ "type": "Feature", "properties": { "OBJECTID": 20, "ISO3": "DNK", "REGION": 150, "LON": 9.264, "LAT": 56.058, "NAME": "Denmark", "CODE": "DNK", "Year2008": 3.43, "Year2009": 6.01, "Year2010": 7.46, "Year2011": 7.57, "Year2012": 7.53, "Year2013": 7.0, "Year2014": 6.59 }, "geometry": { "type": "Point", "coordinates": [ 9.933947218389449, 55.995264991785973 ] } },
{ "type": "Feature", "properties": { "OBJECTID": 21, "ISO3": "DOM", "REGION": 29, "LON": -70.729, "LAT": 19.015, "NAME": "Dominican Republic", "CODE": "DOM", "Year2008": 4.67, "Year2009": 5.34, "Year2010": 5.02, "Year2011": 5.97, "Year2012": 6.52, "Year2013": 7.07, "Year2014": 6.4 }, "geometry": { "type": "Point", "coordinates": [ -70.504580792369609, 18.893175612564505 ] } },
{ "type": "Feature", "properties": { "OBJECTID": 22, "ISO3": "ECU", "REGION": 19, "LON": -78.497, "LAT": -1.385, "NAME": "Ecuador", "CODE": "ECU", "Year2008": 7.31, "Year2009": 6.47, "Year2010": 4.09, "Year2011": 3.46, "Year2012": 3.23, "Year2013": 3.08, "Year2014": 3.48 }, "geometry": { "type": "Point", "coordinates": [ -78.630320870511753, -1.433181663003325 ] } },
{ "type": "Feature", "properties": { "OBJECTID": 23, "ISO3": "EGY", "REGION": 2, "LON": 29.872, "LAT": 26.494, "NAME": "Egypt, Arab Rep.", "CODE": "EGY", "Year2008": 8.52, "Year2009": 9.09, "Year2010": 8.98, "Year2011": 11.85, "Year2012": 12.6, "Year2013": 13.15, "Year2014": 13.1 }, "geometry": { "type": "Point", "coordinates": [ 29.893087971432806, 26.495736038287589 ] } },
{ "type": "Feature", "properties": { "OBJECTID": 24, "ISO3": "IRL", "REGION": 150, "LON": -8.152, "LAT": 53.177, "NAME": "Ireland", "CODE": "IRL", "Year2008": 6.4, "Year2009": 12.01, "Year2010": 13.85, "Year2011": 14.62, "Year2012": 14.67, "Year2013": 13.04, "Year2014": 11.26 }, "geometry": { "type": "Point", "coordinates": [ -8.085667790436105, 53.211679128389108 ] } },
{ "type": "Feature", "properties": { "OBJECTID": 25, "ISO3": "EST", "REGION": 150, "LON": 25.793, "LAT": 58.674, "NAME": "Estonia", "CODE": "EST", "Year2008": 5.45, "Year2009": 13.55, "Year2010": 16.71, "Year2011": 12.33, "Year2012": 10.02, "Year2013": 8.63, "Year2014": 7.35 }, "geometry": { "type": "Point", "coordinates": [ 25.662769176156587, 58.66166447833308 ] } },
{ "type": "Feature", "properties": { "OBJECTID": 26, "ISO3": "SLV", "REGION": 29, "LON": -88.866, "LAT": 13.736, "NAME": "El Salvador", "CODE": "SLV", "Year2008": 5.88, "Year2009": 7.33, "Year2010": 4.89, "Year2011": 4.3, "Year2012": 3.85, "Year2013": 3.69, "Year2014": 4.16 }, "geometry": { "type": "Point", "coordinates": [ -88.851749728567086, 13.713582398508947 ] } },
{ "type": "Feature", "properties": { "OBJECTID": 27, "ISO3": "AUT", "REGION": 150, "LON": 14.912, "LAT": 47.683, "NAME": "Austria", "CODE": "AUT", "Year2008": 4.13, "Year2009": 5.3, "Year2010": 4.82, "Year2011": 4.56, "Year2012": 4.87, "Year2013": 5.33, "Year2014": 5.62 }, "geometry": { "type": "Point", "coordinates": [ 14.191526636744925, 47.602559930396524 ] } },
{ "type": "Feature", "properties": { "OBJECTID": 28, "ISO3": "CZE", "REGION": 150, "LON": 15.338, "LAT": 49.743, "NAME": "Czech Republic", "CODE": "CZE", "Year2008": 4.39, "Year2009": 6.66, "Year2010": 7.28, "Year2011": 6.71, "Year2012": 6.98, "Year2013": 6.95, "Year2014": 6.11 }, "geometry": { "type": "Point", "coordinates": [ 15.287049529712078, 49.761348790014722 ] } },
{ "type": "Feature", "properties": { "OBJECTID": 29, "ISO3": "FIN", "REGION": 150, "LON": 26.272, "LAT": 64.504, "NAME": "Finland", "CODE": "FIN", "Year2008": 6.37, "Year2009": 8.25, "Year2010": 8.39, "Year2011": 7.78, "Year2012": 7.69, "Year2013": 8.19, "Year2014": 8.66 }, "geometry": { "type": "Point", "coordinates": [ 26.240737847873447, 64.51846109570306 ] } },
{ "type": "Feature", "properties": { "OBJECTID": 30, "ISO3": "FRA", "REGION": 150, "LON": 2.55, "LAT": 46.565, "NAME": "France", "CODE": "FRA", "Year2008": 7.06, "Year2009": 8.74, "Year2010": 8.87, "Year2011": 8.81, "Year2012": 9.4, "Year2013": 9.92, "Year2014": 10.3 }, "geometry": { "type": "Point", "coordinates": [ 2.550860905206662, 46.586200516140934 ] } },
{ "type": "Feature", "properties": { "OBJECTID": 31, "ISO3": "GEO", "REGION": 142, "LON": 43.518, "LAT": 42.176, "NAME": "Georgia", "CODE": "GEO", "Year2008": 16.47, "Year2009": 16.84, "Year2010": 16.3, "Year2011": 15.06, "Year2012": 15.04, "Year2013": 14.56, "Year2014": 12.35 }, "geometry": { "type": "Point", "coordinates": [ 43.491671946403244, 42.204285589108679 ] } },
{ "type": "Feature", "properties": { "OBJECTID": 32, "ISO3": "DEU", "REGION": 150, "LON": 9.851, "LAT": 51.11, "NAME": "Germany", "CODE": "DEU", "Year2008": 7.52, "Year2009": 7.74, "Year2010": 6.97, "Year2011": 5.82, "Year2012": 5.38, "Year2013": 5.23, "Year2014": 4.98 }, "geometry": { "type": "Point", "coordinates": [ 10.364249045657004, 51.112522976354342 ] } },
{ "type": "Feature", "properties": { "OBJECTID": 33, "ISO3": "GRC", "REGION": 150, "LON": 21.766, "LAT": 39.666, "NAME": "Greece", "CODE": "GRC", "Year2008": 7.76, "Year2009": 9.62, "Year2010": 12.71, "Year2011": 17.86, "Year2012": 24.44, "Year2013": 27.47, "Year2014": 26.49 }, "geometry": { "type": "Point", "coordinates": [ 22.858485757611675, 39.138095890912666 ] } },
{ "type": "Feature", "properties": { "OBJECTID": 34, "ISO3": "HND", "REGION": 29, "LON": -86.863, "LAT": 14.819, "NAME": "Honduras", "CODE": "HND", "Year2008": 3.16, "Year2009": 3.29, "Year2010": 4.12, "Year2011": 4.47, "Year2012": 3.75, "Year2013": 4.1, "Year2014": 5.49 }, "geometry": { "type": "Point", "coordinates": [ -86.652843592757563, 14.840209988400318 ] } },
{ "type": "Feature", "properties": { "OBJECTID": 35, "ISO3": "HRV", "REGION": 150, "LON": 16.693, "LAT": 45.723, "NAME": "Croatia", "CODE": "HRV", "Year2008": 8.53, "Year2009": 9.2, "Year2010": 11.62, "Year2011": 13.68, "Year2012": 15.93, "Year2013": 17.25, "Year2014": 17.29 }, "geometry": { "type": "Point", "coordinates": [ 16.442661378819651, 45.14079438735115 ] } },
{ "type": "Feature", "properties": { "OBJECTID": 36, "ISO3": "HUN", "REGION": 150, "LON": 19.134, "LAT": 47.07, "NAME": "Hungary", "CODE": "HUN", "Year2008": 7.82, "Year2009": 10.03, "Year2010": 11.17, "Year2011": 11.03, "Year2012": 11.0, "Year2013": 10.18, "Year2014": 7.73 }, "geometry": { "type": "Point", "coordinates": [ 19.425884747583098, 47.16924673404958 ] } },
{ "type": "Feature", "properties": { "OBJECTID": 37, "ISO3": "ISL", "REGION": 150, "LON": -18.48, "LAT": 64.764, "NAME": "Iceland", "CODE": "ISL", "Year2008": 2.95, "Year2009": 7.22, "Year2010": 7.56, "Year2011": 7.03, "Year2012": 6.0, "Year2013": 5.38, "Year2014": 4.9 }, "geometry": { "type": "Point", "coordinates": [ -18.594206431181817, 65.003534131195238 ] } },
{ "type": "Feature", "properties": { "OBJECTID": 38, "ISO3": "IRN", "REGION": 142, "LON": 54.301, "LAT": 32.565, "NAME": "Iran, Islamic Rep.", "CODE": "IRN", "Year2008": 10.48, "Year2009": 11.97, "Year2010": 13.52, "Year2011": 12.3, "Year2012": 12.21, "Year2013": 10.44, "Year2014": 10.57 }, "geometry": { "type": "Point", "coordinates": [ 54.284732138977063, 32.576513526378164 ] } },
{ "type": "Feature", "properties": { "OBJECTID": 39, "ISO3": "ISR", "REGION": 142, "LON": 34.851, "LAT": 31.026, "NAME": "Israel", "CODE": "ISR", "Year2008": 7.7, "Year2009": 9.53, "Year2010": 8.48, "Year2011": 7.14, "Year2012": 6.86, "Year2013": 6.21, "Year2014": 5.89 }, "geometry": { "type": "Point", "coordinates": [ 34.964351842963254, 31.423444050802345 ] } },
{ "type": "Feature", "properties": { "OBJECTID": 40, "ISO3": "ITA", "REGION": 150, "LON": 12.8, "LAT": 42.7, "NAME": "Italy", "CODE": "ITA", "Year2008": 6.72, "Year2009": 7.75, "Year2010": 8.36, "Year2011": 8.36, "Year2012": 10.65, "Year2013": 12.15, "Year2014": 12.68 }, "geometry": { "type": "Point", "coordinates": [ 12.077385175885183, 42.840446873224664 ] } },
{ "type": "Feature", "properties": { "OBJECTID": 41, "ISO3": "JPN", "REGION": 142, "LON": 139.068, "LAT": 36.491, "NAME": "Japan", "CODE": "JPN", "Year2008": 3.98, "Year2009": 5.08, "Year2010": 5.07, "Year2011": 4.55, "Year2012": 4.35, "Year2013": 4.03, "Year2014": 3.58 }, "geometry": { "type": "Point", "coordinates": [ 138.695288234064833, 36.382386741954633 ] } },
{ "type": "Feature", "properties": { "OBJECTID": 42, "ISO3": "JAM", "REGION": 29, "LON": -77.32, "LAT": 18.151, "NAME": "Jamaica", "CODE": "JAM", "Year2008": 10.33, "Year2009": 11.36, "Year2010": 12.37, "Year2011": 12.7, "Year2012": 13.93, "Year2013": 15.25, "Year2014": 13.74 }, "geometry": { "type": "Point", "coordinates": [ -77.311358425850642, 18.125184831215051 ] } },
{ "type": "Feature", "properties": { "OBJECTID": 43, "ISO3": "JOR", "REGION": 142, "LON": 36.319, "LAT": 30.703, "NAME": "Jordan", "CODE": "JOR", "Year2008": 12.7, "Year2009": 12.9, "Year2010": 12.5, "Year2011": 12.9, "Year2012": 12.2, "Year2013": 12.6, "Year2014": 11.9 }, "geometry": { "type": "Point", "coordinates": [ 36.770554626294995, 31.240826402216726 ] } },
{ "type": "Feature", "properties": { "OBJECTID": 44, "ISO3": "KGZ", "REGION": 142, "LON": 74.555, "LAT": 41.465, "NAME": "Kyrgyz Republic", "CODE": "KGZ", "Year2008": 8.22, "Year2009": 8.41, "Year2010": 8.64, "Year2011": 8.53, "Year2012": 8.43, "Year2013": 8.33, "Year2014": 8.05 }, "geometry": { "type": "Point", "coordinates": [ 74.583467489732925, 41.448207123260204 ] } },
{ "type": "Feature", "properties": { "OBJECTID": 45, "ISO3": "KOR", "REGION": 142, "LON": 128.103, "LAT": 36.504, "NAME": "Korea, Rep.", "CODE": "KOR", "Year2008": 3.16, "Year2009": 3.64, "Year2010": 3.72, "Year2011": 3.41, "Year2012": 3.22, "Year2013": 3.12, "Year2014": 3.53 }, "geometry": { "type": "Point", "coordinates": [ 127.87121405288633, 36.42072137479164 ] } },
{ "type": "Feature", "properties": { "OBJECTID": 46, "ISO3": "KAZ", "REGION": 142, "LON": 67.301, "LAT": 48.16, "NAME": "Kazakhstan", "CODE": "KAZ", "Year2008": 6.63, "Year2009": 6.55, "Year2010": 5.77, "Year2011": 5.39, "Year2012": 5.29, "Year2013": 5.2, "Year2014": 5.06 }, "geometry": { "type": "Point", "coordinates": [ 67.265024874198616, 48.146637601344253 ] } },
{ "type": "Feature", "properties": { "OBJECTID": 47, "ISO3": "LVA", "REGION": 150, "LON": 25.641, "LAT": 56.858, "NAME": "Latvia", "CODE": "LVA", "Year2008": 7.74, "Year2009": 17.51, "Year2010": 19.48, "Year2011": 16.21, "Year2012": 15.05, "Year2013": 11.87, "Year2014": 10.85 }, "geometry": { "type": "Point", "coordinates": [ 24.836722901141002, 56.86782822029619 ] } },
{ "type": "Feature", "properties": { "OBJECTID": 48, "ISO3": "BLR", "REGION": 150, "LON": 28.047, "LAT": 53.54, "NAME": "Belarus", "CODE": "BLR", "Year2008": 0.8, "Year2009": 6.1, "Year2010": 1.15, "Year2011": 0.6, "Year2012": 0.5, "Year2013": 0.5, "Year2014": 0.5 }, "geometry": { "type": "Point", "coordinates": [ 28.036360986870079, 53.539591617259362 ] } },
{ "type": "Feature", "properties": { "OBJECTID": 49, "ISO3": "LTU", "REGION": 150, "LON": 23.897, "LAT": 55.336, "NAME": "Lithuania", "CODE": "LTU", "Year2008": 5.83, "Year2009": 13.79, "Year2010": 17.81, "Year2011": 15.39, "Year2012": 13.36, "Year2013": 11.77, "Year2014": 10.7 }, "geometry": { "type": "Point", "coordinates": [ 23.892021400966939, 55.326497811125137 ] } },
{ "type": "Feature", "properties": { "OBJECTID": 50, "ISO3": "SVK", "REGION": 150, "LON": 19.491, "LAT": 48.707, "NAME": "Slovak Republic", "CODE": "SVK", "Year2008": 9.51, "Year2009": 12.03, "Year2010": 14.38, "Year2011": 13.62, "Year2012": 13.96, "Year2013": 14.22, "Year2014": 13.18 }, "geometry": { "type": "Point", "coordinates": [ 19.523504984767271, 48.720496720247468 ] } },
{ "type": "Feature", "properties": { "OBJECTID": 51, "ISO3": "MNG", "REGION": 142, "LON": 102.876, "LAT": 46.056, "NAME": "Mongolia", "CODE": "MNG", "Year2008": 5.56, "Year2009": 5.86, "Year2010": 6.55, "Year2011": 4.77, "Year2012": 3.9, "Year2013": 4.23, "Year2014": 4.8 }, "geometry": { "type": "Point", "coordinates": [ 103.081007279762218, 46.841308843828131 ] } },
{ "type": "Feature", "properties": { "OBJECTID": 52, "ISO3": "MKD", "REGION": 150, "LON": 21.698, "LAT": 41.6, "NAME": "Macedonia, FYR", "CODE": "MKD", "Year2008": 33.76, "Year2009": 32.18, "Year2010": 32.02, "Year2011": 31.38, "Year2012": 31.02, "Year2013": 29.0, "Year2014": 28.03 }, "geometry": { "type": "Point", "coordinates": [ 21.713406062339971, 41.585893349198784 ] } },
{ "type": "Feature", "properties": { "OBJECTID": 53, "ISO3": "MAR", "REGION": 2, "LON": -5.758, "LAT": 32.706, "NAME": "Morocco", "CODE": "MAR", "Year2008": 9.57, "Year2009": 9.1, "Year2010": 9.06, "Year2011": 8.91, "Year2012": 8.99, "Year2013": 9.23, "Year2014": 9.7 }, "geometry": { "type": "Point", "coordinates": [ -6.268992632104244, 31.920551112443945 ] } },
{ "type": "Feature", "properties": { "OBJECTID": 54, "ISO3": "MUS", "REGION": 2, "LON": 57.583, "LAT": -20.255, "NAME": "Mauritius", "CODE": "MUS", "Year2008": 7.22, "Year2009": 7.49, "Year2010": 7.69, "Year2011": 7.91, "Year2012": 8.15, "Year2013": 7.62, "Year2014": 7.72 }, "geometry": { "type": "Point", "coordinates": [ 57.820624576662965, -20.174951186647888 ] } },
{ "type": "Feature", "properties": { "OBJECTID": 55, "ISO3": "MLT", "REGION": 150, "LON": 14.442, "LAT": 35.89, "NAME": "Malta", "CODE": "MLT", "Year2008": 5.98, "Year2009": 6.89, "Year2010": 6.85, "Year2011": 6.38, "Year2012": 6.31, "Year2013": 6.39, "Year2014": 5.8 }, "geometry": { "type": "Point", "coordinates": [ 14.390640760063093, 35.911847329890406 ] } },
{ "type": "Feature", "properties": { "OBJECTID": 56, "ISO3": "MEX", "REGION": 29, "LON": -102.535, "LAT": 23.951, "NAME": "Mexico", "CODE": "MEX", "Year2008": 3.87, "Year2009": 5.36, "Year2010": 5.3, "Year2011": 5.17, "Year2012": 4.89, "Year2013": 4.91, "Year2014": 4.81 }, "geometry": { "type": "Point", "coordinates": [ -102.518321423195061, 23.94912440646624 ] } },
{ "type": "Feature", "properties": { "OBJECTID": 57, "ISO3": "MYS", "REGION": 142, "LON": 102.195, "LAT": 4.201, "NAME": "Malaysia", "CODE": "MYS", "Year2008": 3.34, "Year2009": 3.69, "Year2010": 3.25, "Year2011": 3.05, "Year2012": 3.04, "Year2013": 3.11, "Year2014": 2.88 }, "geometry": { "type": "Point", "coordinates": [ 109.735449870615071, 3.76623038582369 ] } },
{ "type": "Feature", "properties": { "OBJECTID": 58, "ISO3": "BEL", "REGION": 150, "LON": 4.664, "LAT": 50.643, "NAME": "Belgium", "CODE": "BEL", "Year2008": 6.98, "Year2009": 7.91, "Year2010": 8.29, "Year2011": 7.14, "Year2012": 7.54, "Year2013": 8.43, "Year2014": 8.52 }, "geometry": { "type": "Point", "coordinates": [ 4.733150873713896, 50.666488854377178 ] } },
{ "type": "Feature", "properties": { "OBJECTID": 59, "ISO3": "LUX", "REGION": 150, "LON": 6.088, "LAT": 49.771, "NAME": "Luxembourg", "CODE": "LUX", "Year2008": 5.06, "Year2009": 5.12, "Year2010": 4.36, "Year2011": 4.9, "Year2012": 5.14, "Year2013": 5.85, "Year2014": 5.85 }, "geometry": { "type": "Point", "coordinates": [ 6.159432626914224, 49.768679913147537 ] } },
{ "type": "Feature", "properties": { "OBJECTID": 60, "ISO3": "PSE", "REGION": 142, "LON": 35.278, "LAT": 32.037, "NAME": "West Bank and Gaza", "CODE": "PSE", "Year2008": 25.99, "Year2009": 24.55, "Year2010": 23.73, "Year2011": 20.94, "Year2012": 22.97, "Year2013": 23.4, "Year2014": 26.95 }, "geometry": { "type": "Point", "coordinates": [ 35.219723082953976, 31.864745450941882 ] } },
{ "type": "Feature", "properties": { "OBJECTID": 61, "ISO3": "MNE", "REGION": 150, "LON": 19.254, "LAT": 42.792, "NAME": "Montenegro", "CODE": "MNE", "Year2008": 17.15, "Year2009": 19.09, "Year2010": 19.68, "Year2011": 19.71, "Year2012": 19.73, "Year2013": 19.5, "Year2014": 18.0 }, "geometry": { "type": "Point", "coordinates": [ 19.273101004407863, 42.766131118056705 ] } },
{ "type": "Feature", "properties": { "OBJECTID": 62, "ISO3": "NGA", "REGION": 2, "LON": 8.105, "LAT": 9.594, "NAME": "Nigeria", "CODE": "NGA", "Year2008": 14.9, "Year2009": 19.7, "Year2010": 21.4, "Year2011": 23.9, "Year2012": 24.3, "Year2013": 3.7, "Year2014": 4.56 }, "geometry": { "type": "Point", "coordinates": [ 8.115104062602484, 9.588115475149095 ] } },
{ "type": "Feature", "properties": { "OBJECTID": 63, "ISO3": "NLD", "REGION": 150, "LON": 5.389, "LAT": 52.077, "NAME": "Netherlands", "CODE": "NLD", "Year2008": 2.75, "Year2009": 3.41, "Year2010": 4.45, "Year2011": 4.98, "Year2012": 5.82, "Year2013": 7.24, "Year2014": 7.42 }, "geometry": { "type": "Point", "coordinates": [ 5.639291908694702, 52.258918799762853 ] } },
{ "type": "Feature", "properties": { "OBJECTID": 64, "ISO3": "NOR", "REGION": 150, "LON": 8.74, "LAT": 61.152, "NAME": "Norway", "CODE": "NOR", "Year2008": 2.55, "Year2009": 3.1, "Year2010": 3.52, "Year2011": 3.21, "Year2012": 3.12, "Year2013": 3.42, "Year2014": 3.48 }, "geometry": { "type": "Point", "coordinates": [ 13.982010667758175, 64.279310163932962 ] } },
{ "type": "Feature", "properties": { "OBJECTID": 65, "ISO3": "NZL", "REGION": 9, "LON": 172.235, "LAT": -42.634, "NAME": "New Zealand", "CODE": "NZL", "Year2008": 4.02, "Year2009": 5.82, "Year2010": 6.14, "Year2011": 5.97, "Year2012": 6.41, "Year2013": 5.76, "Year2014": 5.38 }, "geometry": { "type": "Point", "coordinates": [ 172.219128591111712, -41.745968937416478 ] } },
{ "type": "Feature", "properties": { "OBJECTID": 66, "ISO3": "PRY", "REGION": 19, "LON": -58.391, "LAT": -23.236, "NAME": "Paraguay", "CODE": "PRY", "Year2008": 5.59, "Year2009": 5.46, "Year2010": 7.5, "Year2011": 6.97, "Year2012": 8.0, "Year2013": 7.7, "Year2014": 7.83 }, "geometry": { "type": "Point", "coordinates": [ -58.386011505226747, -23.259387707376732 ] } },
{ "type": "Feature", "properties": { "OBJECTID": 67, "ISO3": "PER", "REGION": 19, "LON": -75.552, "LAT": -9.326, "NAME": "Peru", "CODE": "PER", "Year2008": 8.03, "Year2009": 7.95, "Year2010": 7.5, "Year2011": 7.33, "Year2012": 6.55, "Year2013": 5.73, "Year2014": 5.71 }, "geometry": { "type": "Point", "coordinates": [ -74.360979229008194, -9.185526989478944 ] } },
{ "type": "Feature", "properties": { "OBJECTID": 68, "ISO3": "POL", "REGION": 150, "LON": 19.401, "LAT": 52.125, "NAME": "Poland", "CODE": "POL", "Year2008": 7.12, "Year2009": 8.17, "Year2010": 9.64, "Year2011": 9.63, "Year2012": 10.09, "Year2013": 10.33, "Year2014": 8.99 }, "geometry": { "type": "Point", "coordinates": [ 19.373247568520526, 52.12749892303691 ] } },
{ "type": "Feature", "properties": { "OBJECTID": 69, "ISO3": "PAN", "REGION": 29, "LON": -80.92, "LAT": 8.384, "NAME": "Panama", "CODE": "PAN", "Year2008": 5.85, "Year2009": 6.56, "Year2010": 6.52, "Year2011": 4.48, "Year2012": 4.05, "Year2013": 4.1, "Year2014": 4.82 }, "geometry": { "type": "Point", "coordinates": [ -80.06662201469419, 8.507978125290322 ] } },
{ "type": "Feature", "properties": { "OBJECTID": 70, "ISO3": "PRT", "REGION": 150, "LON": -8.058, "LAT": 40.309, "NAME": "Portugal", "CODE": "PRT", "Year2008": 7.55, "Year2009": 9.43, "Year2010": 10.77, "Year2011": 12.68, "Year2012": 15.53, "Year2013": 16.18, "Year2014": 13.89 }, "geometry": { "type": "Point", "coordinates": [ -8.077508588650403, 39.654259138848204 ] } },
{ "type": "Feature", "properties": { "OBJECTID": 71, "ISO3": "QAT", "REGION": 142, "LON": 51.191, "LAT": 25.316, "NAME": "Qatar", "CODE": "QAT", "Year2008": 0.31, "Year2009": 0.31, "Year2010": 0.45, "Year2011": 0.56, "Year2012": 0.48, "Year2013": 0.27, "Year2014": 0.19 }, "geometry": { "type": "Point", "coordinates": [ 51.2249003086024, 25.316793479335672 ] } },
{ "type": "Feature", "properties": { "OBJECTID": 72, "ISO3": "ROU", "REGION": 150, "LON": 24.969, "LAT": 45.844, "NAME": "Romania", "CODE": "ROU", "Year2008": 5.79, "Year2009": 6.86, "Year2010": 6.96, "Year2011": 7.18, "Year2012": 6.79, "Year2013": 7.1, "Year2014": 6.8 }, "geometry": { "type": "Point", "coordinates": [ 24.975056729784285, 45.806202894248202 ] } },
{ "type": "Feature", "properties": { "OBJECTID": 73, "ISO3": "MDA", "REGION": 150, "LON": 28.599, "LAT": 47.193, "NAME": "Moldova", "CODE": "MDA", "Year2008": 3.98, "Year2009": 6.4, "Year2010": 7.45, "Year2011": 6.68, "Year2012": 5.58, "Year2013": 5.1, "Year2014": 3.86 }, "geometry": { "type": "Point", "coordinates": [ 28.447516886295318, 47.220316390289213 ] } },
{ "type": "Feature", "properties": { "OBJECTID": 74, "ISO3": "PHL", "REGION": 142, "LON": 122.466, "LAT": 11.118, "NAME": "Philippines", "CODE": "PHL", "Year2008": 3.72, "Year2009": 3.86, "Year2010": 3.61, "Year2011": 3.59, "Year2012": 3.5, "Year2013": 3.5, "Year2014": 3.6 }, "geometry": { "type": "Point", "coordinates": [ 122.920873457144353, 11.821778252364481 ] } },
{ "type": "Feature", "properties": { "OBJECTID": 75, "ISO3": "PRI", "REGION": 29, "LON": -66.466, "LAT": 18.221, "NAME": "Puerto Rico", "CODE": "PRI", "Year2008": 11.48, "Year2009": 15.0, "Year2010": 16.1, "Year2011": 15.7, "Year2012": 14.5, "Year2013": 14.3, "Year2014": 13.91 }, "geometry": { "type": "Point", "coordinates": [ -66.65506586469786, 18.22757120634617 ] } },
{ "type": "Feature", "properties": { "OBJECTID": 76, "ISO3": "RUS", "REGION": 150, "LON": 96.689, "LAT": 61.988, "NAME": "Russian Federation", "CODE": "RUS", "Year2008": 6.2, "Year2009": 8.3, "Year2010": 7.37, "Year2011": 6.54, "Year2012": 5.44, "Year2013": 5.46, "Year2014": 5.16 }, "geometry": { "type": "Point", "coordinates": [ 96.789791331404899, 61.912438642429436 ] } },
{ "type": "Feature", "properties": { "OBJECTID": 77, "ISO3": "ZAF", "REGION": 2, "LON": 23.121, "LAT": -30.558, "NAME": "South Africa", "CODE": "ZAF", "Year2008": 22.43, "Year2009": 23.54, "Year2010": 24.69, "Year2011": 24.65, "Year2012": 24.73, "Year2013": 24.57, "Year2014": 24.9 }, "geometry": { "type": "Point", "coordinates": [ 25.120924098268574, -28.994936611335504 ] } },
{ "type": "Feature", "properties": { "OBJECTID": 78, "ISO3": "SVN", "REGION": 150, "LON": 14.827, "LAT": 46.124, "NAME": "Slovenia", "CODE": "SVN", "Year2008": 4.37, "Year2009": 5.86, "Year2010": 7.24, "Year2011": 8.17, "Year2012": 8.84, "Year2013": 10.1, "Year2014": 9.67 }, "geometry": { "type": "Point", "coordinates": [ 14.88305949489984, 46.143912732386752 ] } },
{ "type": "Feature", "properties": { "OBJECTID": 79, "ISO3": "SGP", "REGION": 142, "LON": 103.808, "LAT": 1.351, "NAME": "Singapore", "CODE": "SGP", "Year2008": 3.96, "Year2009": 5.86, "Year2010": 4.12, "Year2011": 3.89, "Year2012": 3.72, "Year2013": 3.86, "Year2014": 3.74 }, "geometry": { "type": "Point", "coordinates": [ 103.781647000308851, 1.376096666627916 ] } },
{ "type": "Feature", "properties": { "OBJECTID": 80, "ISO3": "ESP", "REGION": 150, "LON": -3.649, "LAT": 40.227, "NAME": "Spain", "CODE": "ESP", "Year2008": 11.25, "Year2009": 17.86, "Year2010": 19.86, "Year2011": 21.39, "Year2012": 24.79, "Year2013": 26.09, "Year2014": 24.44 }, "geometry": { "type": "Point", "coordinates": [ -3.602339941435105, 40.268896354882941 ] } },
{ "type": "Feature", "properties": { "OBJECTID": 81, "ISO3": "SWE", "REGION": 150, "LON": 15.27, "LAT": 62.011, "NAME": "Sweden", "CODE": "SWE", "Year2008": 6.18, "Year2009": 8.3, "Year2010": 8.58, "Year2011": 7.77, "Year2012": 7.96, "Year2013": 8.01, "Year2014": 7.92 }, "geometry": { "type": "Point", "coordinates": [ 16.709590934174344, 62.823907609248806 ] } },
{ "type": "Feature", "properties": { "OBJECTID": 82, "ISO3": "CHE", "REGION": 150, "LON": 7.908, "LAT": 46.861, "NAME": "Switzerland", "CODE": "CHE", "Year2008": 3.35, "Year2009": 4.12, "Year2010": 4.81, "Year2011": 4.41, "Year2012": 4.48, "Year2013": 4.75, "Year2014": 4.83 }, "geometry": { "type": "Point", "coordinates": [ 8.224403733145834, 46.812654188839815 ] } },
{ "type": "Feature", "properties": { "OBJECTID": 83, "ISO3": "TTO", "REGION": 29, "LON": -61.253, "LAT": 10.468, "NAME": "Trinidad and Tobago", "CODE": "TTO", "Year2008": 4.63, "Year2009": 5.28, "Year2010": 3.77, "Year2011": 3.25, "Year2012": 3.45, "Year2013": 2.46, "Year2014": 2.22 }, "geometry": { "type": "Point", "coordinates": [ -61.270885973708687, 10.455121293612876 ] } },
{ "type": "Feature", "properties": { "OBJECTID": 84, "ISO3": "THA", "REGION": 142, "LON": 100.844, "LAT": 15.7, "NAME": "Thailand", "CODE": "THA", "Year2008": 1.18, "Year2009": 1.49, "Year2010": 0.62, "Year2011": 0.66, "Year2012": 0.58, "Year2013": 0.49, "Year2014": 0.58 }, "geometry": { "type": "Point", "coordinates": [ 101.047120390193925, 15.157260856803134 ] } },
{ "type": "Feature", "properties": { "OBJECTID": 85, "ISO3": "TUR", "REGION": 142, "LON": 35.179, "LAT": 39.061, "NAME": "Turkey", "CODE": "TUR", "Year2008": 9.71, "Year2009": 12.55, "Year2010": 10.66, "Year2011": 8.8, "Year2012": 8.15, "Year2013": 8.73, "Year2014": 9.88 }, "geometry": { "type": "Point", "coordinates": [ 35.239908731402863, 39.038199573051884 ] } },
{ "type": "Feature", "properties": { "OBJECTID": 86, "ISO3": "GBR", "REGION": 150, "LON": -1.6, "LAT": 53.0, "NAME": "United Kingdom", "CODE": "GBR", "Year2008": 5.62, "Year2009": 7.54, "Year2010": 7.79, "Year2011": 8.04, "Year2012": 7.89, "Year2013": 7.53, "Year2014": 6.11 }, "geometry": { "type": "Point", "coordinates": [ -2.844126637034606, 54.049161868725321 ] } },
{ "type": "Feature", "properties": { "OBJECTID": 87, "ISO3": "UKR", "REGION": 150, "LON": 31.388, "LAT": 49.016, "NAME": "Ukraine", "CODE": "UKR", "Year2008": 6.36, "Year2009": 8.84, "Year2010": 8.1, "Year2011": 7.86, "Year2012": 7.53, "Year2013": 7.17, "Year2014": 9.27 }, "geometry": { "type": "Point", "coordinates": [ 31.384006246591071, 49.018043723439121 ] } },
{ "type": "Feature", "properties": { "OBJECTID": 88, "ISO3": "USA", "REGION": 29, "LON": -98.606, "LAT": 39.622, "NAME": "United States", "CODE": "USA", "Year2008": 5.78, "Year2009": 9.25, "Year2010": 9.63, "Year2011": 8.95, "Year2012": 8.07, "Year2013": 7.38, "Year2014": 6.17 }, "geometry": { "type": "Point", "coordinates": [ -101.424582881394826, 40.542650649408017 ] } },
{ "type": "Feature", "properties": { "OBJECTID": 89, "ISO3": "URY", "REGION": 19, "LON": -56.012, "LAT": -32.8, "NAME": "Uruguay", "CODE": "URY", "Year2008": 7.7, "Year2009": 7.3, "Year2010": 7.16, "Year2011": 6.31, "Year2012": 6.45, "Year2013": 6.44, "Year2014": 6.55 }, "geometry": { "type": "Point", "coordinates": [ -55.999070675171481, -32.790599155526536 ] } },
{ "type": "Feature", "properties": { "OBJECTID": 90, "ISO3": "VEN", "REGION": 19, "LON": -66.166, "LAT": 7.125, "NAME": "Venezuela, RB", "CODE": "VEN", "Year2008": 6.85, "Year2009": 8.05, "Year2010": 8.45, "Year2011": 7.84, "Year2012": 7.41, "Year2013": 7.54, "Year2014": 6.95 }, "geometry": { "type": "Point", "coordinates": [ -66.176111031299001, 7.103026981609958 ] } },
{ "type": "Feature", "properties": { "OBJECTID": 91, "ISO3": "VNM", "REGION": 142, "LON": 105.314, "LAT": 21.491, "NAME": "Vietnam", "CODE": "VNM", "Year2008": 2.38, "Year2009": 1.74, "Year2010": 1.11, "Year2011": 1.0, "Year2012": 1.03, "Year2013": 1.25, "Year2014": 1.26 }, "geometry": { "type": "Point", "coordinates": [ 106.309447901399608, 16.688505742446125 ] } },
{ "type": "Feature", "properties": { "OBJECTID": 92, "ISO3": "IDN", "REGION": 142, "LON": 114.252, "LAT": -0.976, "NAME": "Indonesia", "CODE": "IDN", "Year2008": 7.21, "Year2009": 6.11, "Year2010": 5.61, "Year2011": 5.15, "Year2012": 4.47, "Year2013": 4.34, "Year2014": 4.05 }, "geometry": { "type": "Point", "coordinates": [ 117.211896856754606, -2.176954716087209 ] } },
{ "type": "Feature", "properties": { "OBJECTID": 93, "ISO3": "SRB", "REGION": 150, "LON": 20.806, "LAT": 44.032, "NAME": "Serbia", "CODE": "SRB", "Year2008": 13.63, "Year2009": 16.1, "Year2010": 19.22, "Year2011": 22.97, "Year2012": 24.0, "Year2013": 22.15, "Year2014": 19.22 }, "geometry": { "type": "Point", "coordinates": [ 20.826811305497415, 43.992060507386554 ] } }
]
}
